place,ranking,lat,long,duration(h)
Museo Archeologico Nazionale,20,40.8530,14.2465,1.5
Catacombe di San Gennaro,27,40.8584,14.2255,1.0
Museo di Capodimonte,32,40.8578,14.2397,2.0
Cappella Sansevero,37,40.8518,14.2477,1.0
Duomo,46,40.8522,14.2681,1.0
Complesso Monumentale di Santa Chiara,48,40.8537,14.2492,1.0
Gallerie d'Italia,56,40.8521,14.2550,1.0
Palazzo Reale,67,40.8459,14.2498,1.0
Pio Monte della Misericordia,78,40.8495,14.2544,1.0
Teatro San Carlo,159,40.8412,14.2506,1.5
Cimitero delle Fontanelle,161,40.8486,14.2154,1.0
Galleria Borbonica,237,40.8361,14.2479,1.5
Complesso Museale di Santa Maria delle Anime del Purgatorio ad Arco,310,40.8510,14.2532,1.0
Complesso Monumentale di San Lorenzo Maggiore,312,40.8546,14.2493,1.5
Ospedale degli Incurabili,323,40.8509,14.2290,1.0
Lungomare,324,40.8272,14.2475,1.5
Chiesa e Chiostro di San Gregorio Armeno,338,40.8505,14.2484,1.0
Castel dell'Ovo,342,40.8232,14.2460,1.0
Castel Nuovo,343,40.8441,14.2505,1.0
Villa Comunale,362,40.8320,14.2283,1.5
Piazza San Domenico Maggiore,363,40.8517,14.2537,0.5
Basilica Santa Maria della Sanità & Catacombe di San Gaudioso,364,40.8545,14.2434,1.0
Santissima Annunziata,376,40.8489,14.2535,1.0
Palazzo Mannajuolo,397,40.8433,14.2582,1.0
Mercato di Porta Nolana,402,40.8533,14.2594,0.5
Museo Diocesano di Napoli,410,40.8485,14.2522,1.0
Celanapoli,411,40.8499,14.2574,0.5
Università Metro Art Station,426,40.8512,14.2599,0.5
Via San Gregorio Armeno,443,40.8503,14.2491,0.5
Chiesa San Giovanni a Carbonara,445,40.8517,14.2520,1.0
Toledo Metro Station,454,40.8454,14.2527,0.5
Napoli Sotterranea,455,40.8494,14.2497,1.0
Chiesa del Gesù Nuovo,459,40.8511,14.2570,1.0
Piazza Bellini,465,40.8490,14.2582,0.5
Casa e Chiesa di Santa Maria Francesca delle Cinque Piaghe,499,40.8498,14.2485,0.5
Museo Civico Filangieri,501,40.8496,14.2557,1.0
Chiesa di Santa Maria del Carmine,508,40.8491,14.2539,0.5
Chiesa di San Domenico Maggiore,525,40.8497,14.2548,0.5
Porta San Gennaro,532,40.8531,14.2429,0.5
Laboratorio Oste,551,40.8543,14.2480,0.5
Piazza Dante,575,40.8505,14.2529,0.5
Complesso Monumentale dei Girolamini,579,40.8503,14.2512,1.0
Piazza del Plebiscito,580,40.8433,14.2477,1.0
Museo del Tesoro di San Gennaro,596,40.8546,14.2496,1.0
MADRE,603,40.8456,14.2541,1.5
Piazza del Gesù Nuovo,606,40.8504,14.2580,0.5
Borgo Marinaro,608,40.8283,14.2351,1.0
Museo Pignatelli,622,40.8369,14.2298,1.5
Chiesa di Sant'Anna dei Lombardi,625,40.8452,14.2588,1.0
Piazzetta Nilo,632,40.8530,14.2535,0.5
Chiesa di San Giovanni a Mare,653,40.8519,14.2547,1.0
Chiesa di San Pietro a Maiella,656,40.8491,14.2589,1.0
Chiesa di Sant'Eligio Maggiore,659,40.8494,14.2506,1.0
Biblioteca Nazionale di Napoli,691,40.8544,14.2469,1.0
Museo del Tessile e dell’Abbigliamento Elena Aldobrandini,707,40.8540,14.2487,1.0
Lello Esposito,711,40.8453,14.2496,0.5
Via Chiaia,713,40.8412,14.2493,0.5
Chiesa di Santa Teresa a Chiaia,733,40.8390,14.2471,0.5
Museo delle Arti Sanitarie,734,40.8424,14.2452,1.0
Palazzo dello Spagnuolo,751,40.8475,14.2519,1.0
Laboratorio Michele Iodice,804,40.8480,14.2564,0.5
Museo del Sottosuolo,806,40.8493,14.2537,1.0
Università degli Studi di Napoli Federico II,808,40.8507,14.2590,1.0
Porto di Mergellina,809,40.8281,14.2261,1.0
Basilica di San Paolo Maggiore,835,40.8534,14.2541,1.0
Maradona Shrine,836,40.8333,14.2336,0.5
MeMus,846,40.8429,14.2463,1.0
Piazza dei Martiri,900,40.8430,14.2522,0.5
Museo Nitsch,928,40.8496,14.2548,1.0
Officina D'Arti Grafiche di Carmine Cervone,962,40.8501,14.2499,0.5
Port'Alba,984,40.8509,14.2581,0.5
Complesso San Pietro Martire,986,40.8502,14.2525,1.0
La Bottega del Mandolino,1022,40.8437,14.2459,0.5
Basilica di San Giorgio Maggiore,1083,40.8274,14.2356,1.0
Molo Luise,1144,40.8296,14.2325,1.0
Piazzetta del Leone,1186,40.8265,14.2373,0.5
Made in Cloister,1189,40.8361,14.2387,1.0
Real Bosco di Capodimonte,1249,40.8560,14.2346,2.0
La Torretta di Mergellina,1265,40.8307,14.2250,1.0
Zhao,1290,40.8463,14.2491,0.5
Chiesa di Sant'Angelo a Nilo,1323,40.8492,14.2512,0.5
Villa Maria,1326,40.8449,14.2520,1.0
Galleria Lia Rumma,1362,40.8491,14.2564,1.0
Orto Botanico di Napoli,1367,40.8495,14.2533,1.5
Basilica di San Francesco di Paola,1412,40.8498,14.2471,1.0
Palazzo Sanfelice,1415,40.8482,14.2497,1.0
Guglia di San Gennaro,1445,40.8497,14.2492,0.5
Galleria Umberto I,1479,40.8467,14.2522,1.0
Ospedale delle Bambole,1504,40.8506,14.2575,1.0
La Pignasecca,1538,40.8446,14.2430,1.0
Mercato Sant'Antonio Abate,1706,40.8488,14.2540,1.0
Palazzo delle Arti Napoli,1711,40.8521,14.2490,1.0
Guglia dell'Immacolata,1776,40.8491,14.2470,0.5
Thomas Dane Gallery,1780,40.8486,14.2545,0.5
Guglia di San Domenico,1817,40.8494,14.2562,0.5
Lisa Weber Laboratorio di Ceramica,1995,40.8493,14.2582,0.5
Piazza del Mercato,2012,40.8502,14.2537,0.5
Piazzetta Orefici,2014,40.8491,14.2498,0.5
Palazzo Orsini in Gravina,2025,40.8495,14.2531,1.0
Palazzo dei Di Sangro,2041,40.8533,14.2543,1.0
Chiesa di Madre di Buon Consiglio,2149,40.8469,14.2496,1.0
